City_ID,City,Lat,Lng,Max Temp,Humidity,Cloudiness,Wind Speed,Country,Date
0,walvis bay,-22.9575,14.5053,15.61,84,78,1.16,NA,Sun Nov 26 20:57:50 2023
1,olonkinbyen,70.9221,-8.7187,1.46,85,100,8.31,SJ,Sun Nov 26 20:57:50 2023
2,bethel,41.3712,-73.414,10.67,87,100,6.69,US,Sun Nov 26 20:55:33 2023
3,saint-francois,46.4154,3.9054,0.92,94,100,0.51,FR,Sun Nov 26 20:57:50 2023
4,grytviken,-54.2811,-36.5092,1.97,94,45,4.59,GS,Sun Nov 26 20:57:51 2023
5,port elizabeth,-33.918,25.5701,19.62,88,0,6.17,ZA,Sun Nov 26 20:55:46 2023
6,sandnessjoen,66.0217,12.6316,-20.71,71,3,5.35,NO,Sun Nov 26 20:53:03 2023
7,tokar,18.4254,37.729,26.93,75,35,4.12,SD,Sun Nov 26 20:57:51 2023
8,laojunmiao,39.8333,97.7333,4.33,25,28,2.57,CN,Sun Nov 26 20:57:51 2023
9,albany,42.6001,-73.9662,5.85,93,100,2.54,US,Sun Nov 26 20:57:16 2023
10,dudinka,69.4058,86.1778,-27.22,100,60,2.75,RU,Sun Nov 26 20:57:52 2023
11,klyuchi,52.2667,79.1667,0.6,69,100,4.09,RU,Sun Nov 26 20:57:52 2023
12,waitangi,-43.9535,-176.5597,12.24,94,93,10.69,NZ,Sun Nov 26 20:57:52 2023
13,puerto natales,-51.7236,-72.4875,2.68,92,14,2.03,CL,Sun Nov 26 20:57:52 2023
14,tolanaro,-25.0319,46.9987,24.04,94,20,1.03,MG,Sun Nov 26 20:57:53 2023
15,colonia,50.9333,6.95,5.54,80,100,3.09,DE,Sun Nov 26 20:57:53 2023
16,puerto baquerizo moreno,-0.9,-89.6,24.56,76,58,3.9,EC,Sun Nov 26 20:57:53 2023
17,ulladulla,-35.35,150.4667,25.98,71,61,4.33,AU,Sun Nov 26 20:57:53 2023
18,invercargill,-46.4,168.35,15.57,73,100,2.24,NZ,Sun Nov 26 20:50:43 2023
19,punta del este,-34.9667,-54.95,19.06,89,0,3.6,UY,Sun Nov 26 20:57:54 2023
20,afaahiti,-17.75,-149.2833,26.93,82,98,10.28,PF,Sun Nov 26 20:57:54 2023
21,jamestown,42.097,-79.2353,4.77,97,100,3.6,US,Sun Nov 26 20:57:47 2023
22,thunder bay,48.4001,-89.3168,-7.01,62,75,8.23,CA,Sun Nov 26 20:57:54 2023
23,mitu,1.1983,-70.1733,24.67,81,100,0.77,CO,Sun Nov 26 20:57:55 2023
24,da nang,16.0678,108.2208,26.99,61,20,5.14,VN,Sun Nov 26 20:57:55 2023
25,bredasdorp,-34.5322,20.0403,15.77,75,25,0.78,ZA,Sun Nov 26 20:57:55 2023
26,punta cana,18.5818,-68.4043,26.87,83,40,3.09,DO,Sun Nov 26 20:57:21 2023
27,port alfred,-33.5906,26.891,20.99,82,0,4.06,ZA,Sun Nov 26 20:57:55 2023
28,port-aux-francais,-49.35,70.2167,3.58,86,100,6.7,TF,Sun Nov 26 20:57:56 2023
29,iqaluit,63.7506,-68.5145,-9.15,73,75,1.03,CA,Sun Nov 26 20:57:56 2023
30,isafjordur,66.0755,-23.124,4.19,89,90,4.69,IS,Sun Nov 26 20:57:56 2023
31,sitka,57.0531,-135.33,9.94,76,100,8.75,US,Sun Nov 26 20:57:56 2023
32,adamstown,-25.066,-130.1015,22.07,86,100,8.67,PN,Sun Nov 26 20:57:56 2023
33,yuma,32.7253,-114.6244,17.09,27,0,4.63,US,Sun Nov 26 20:57:57 2023
34,luanda,-8.8368,13.2343,26.0,89,75,1.03,AO,Sun Nov 26 20:57:57 2023
35,thompson,55.7435,-97.8558,-17.91,78,100,2.57,CA,Sun Nov 26 20:57:57 2023
36,queenstown,-31.8976,26.8753,19.07,88,0,0.67,ZA,Sun Nov 26 20:57:58 2023
37,mhamid,29.82,-5.72,11.74,26,1,0.73,MA,Sun Nov 26 20:57:58 2023
38,margaret river,-33.95,115.0667,22.31,66,100,5.86,AU,Sun Nov 26 20:57:58 2023
39,mbaiki,3.8678,17.9892,21.05,93,77,0.79,CF,Sun Nov 26 20:57:58 2023
40,kailua-kona,19.6406,-155.9956,25.98,92,100,2.06,US,Sun Nov 26 20:53:57 2023
41,bilibino,68.0546,166.4372,-12.66,94,12,2.44,RU,Sun Nov 26 20:57:59 2023
42,slobozhans'ke,49.597,36.5262,1.77,97,100,9.6,UA,Sun Nov 26 20:57:59 2023
43,udachny,66.4167,112.4,-20.2,98,100,3.63,RU,Sun Nov 26 20:57:59 2023
44,ust-nera,64.5667,143.2,-22.96,94,98,3.47,RU,Sun Nov 26 20:57:59 2023
45,ciudad de huajuapan de leon,17.8,-97.7667,19.67,71,95,1.81,MX,Sun Nov 26 20:57:59 2023
46,yellowknife,62.456,-114.3525,-14.71,92,100,1.54,CA,Sun Nov 26 20:58:00 2023
47,blackmans bay,-43.0167,147.3167,14.85,68,9,0.45,AU,Sun Nov 26 20:58:00 2023
48,broken hill,-31.95,141.4333,18.99,74,92,14.58,AU,Sun Nov 26 20:55:10 2023
49,ribas do rio pardo,-20.4431,-53.7592,21.74,93,100,2.29,BR,Sun Nov 26 20:58:00 2023
50,ancud,-41.8697,-73.8203,9.95,87,100,1.83,CL,Sun Nov 26 20:58:01 2023
51,kodinsk,58.6881,99.1844,-18.9,85,12,0.75,RU,Sun Nov 26 20:58:01 2023
52,coquimbo,-29.9533,-71.3436,14.85,88,100,1.54,CL,Sun Nov 26 20:58:01 2023
53,nova sintra,14.8667,-24.7167,22.62,61,85,4.47,CV,Sun Nov 26 20:58:01 2023
54,kodiak,57.79,-152.4072,5.73,81,75,7.72,US,Sun Nov 26 20:58:01 2023
55,vatutine,49.015,31.0621,-4.61,85,100,11.45,UA,Sun Nov 26 20:58:02 2023
56,amga,60.8953,131.9608,-24.56,92,100,2.03,RU,Sun Nov 26 20:58:02 2023
57,ulysses,37.5814,-101.3552,-2.98,93,0,2.06,US,Sun Nov 26 20:58:02 2023
58,inhambane,-23.865,35.3833,23.99,88,40,0.0,MZ,Sun Nov 26 20:58:03 2023
59,ribeira grande,38.5167,-28.7,18.21,95,100,4.47,PT,Sun Nov 26 20:58:03 2023
60,richards bay,-28.783,32.0377,23.43,85,39,1.49,ZA,Sun Nov 26 20:58:03 2023
61,kerikeri,-35.2268,173.9474,21.06,61,67,0.89,NZ,Sun Nov 26 20:58:04 2023
62,yangiobod,41.1192,70.0941,12.46,29,99,2.5,UZ,Sun Nov 26 20:58:04 2023
63,petropavlovsk-kamchatsky,53.0452,158.6483,-4.67,63,40,7.15,RU,Sun Nov 26 20:58:04 2023
64,vernon,50.2581,-119.2691,3.34,83,96,0.51,CA,Sun Nov 26 20:58:05 2023
65,hawaiian paradise park,19.5933,-154.9731,23.73,87,100,2.57,US,Sun Nov 26 20:58:05 2023
66,shar,49.5886,81.0453,-1.17,70,100,1.15,KZ,Sun Nov 26 20:58:06 2023
67,sake,-1.5736,29.045,16.61,94,100,0.48,CD,Sun Nov 26 20:58:06 2023
68,salahonda,2.1019,-78.7217,26.16,86,71,1.62,CO,Sun Nov 26 20:58:06 2023
69,uturoa,-16.7333,-151.4333,26.33,81,15,8.99,PF,Sun Nov 26 20:58:06 2023
70,road town,18.4167,-64.6167,25.05,68,45,6.6,VG,Sun Nov 26 20:58:07 2023
71,lebu,-37.6167,-73.65,12.32,93,76,3.8,CL,Sun Nov 26 20:58:07 2023
72,macapa,0.0389,-51.0664,22.99,88,100,12.86,BR,Sun Nov 26 20:58:07 2023
73,college,64.8569,-147.8028,-7.74,87,100,0.0,US,Sun Nov 26 20:55:25 2023
74,constantia,44.1833,28.65,-1.62,83,86,8.99,RO,Sun Nov 26 20:58:08 2023
75,choyr,46.3611,108.3611,-14.42,73,3,7.69,MN,Sun Nov 26 20:58:08 2023
76,chonchi,-42.6128,-73.8092,10.56,89,100,0.21,CL,Sun Nov 26 20:58:08 2023
77,aldinga beach,-35.2793,138.4604,25.98,45,0,7.41,AU,Sun Nov 26 20:58:09 2023
78,longyearbyen,78.2186,15.6401,2.91,75,40,8.23,SJ,Sun Nov 26 20:58:09 2023
79,happy valley-goose bay,53.3168,-60.3315,-5.83,86,20,3.09,CA,Sun Nov 26 20:58:09 2023
80,island harbour,50.724,-1.2758,10.55,92,100,1.34,GB,Sun Nov 26 20:58:09 2023
81,vorgashor,67.5833,63.95,-21.62,100,67,1.77,RU,Sun Nov 26 20:58:10 2023
82,anadyr,64.75,177.4833,2.28,93,75,15.65,RU,Sun Nov 26 20:58:10 2023
83,tromso,69.6496,18.957,-4.99,86,75,2.06,NO,Sun Nov 26 20:58:10 2023
84,kalmunai,7.4167,81.8167,28.01,78,88,4.21,LK,Sun Nov 26 20:58:11 2023
85,westport,41.1415,-73.3579,11.85,89,100,10.29,US,Sun Nov 26 20:58:11 2023
86,beaufort west,-32.3567,22.583,21.53,55,0,1.25,ZA,Sun Nov 26 20:58:11 2023
87,port mathurin,-19.6833,63.4167,24.93,70,74,7.14,MU,Sun Nov 26 20:58:11 2023
88,la ronge,55.1001,-105.2842,-14.86,78,75,0.51,CA,Sun Nov 26 20:58:12 2023
89,mosjoen,65.836,13.1908,-20.71,84,20,2.06,NO,Sun Nov 26 20:58:12 2023
90,bonthe,7.5264,-12.505,25.15,84,2,1.08,SL,Sun Nov 26 20:58:12 2023
91,west island,-12.1568,96.8225,28.99,58,97,4.63,CC,Sun Nov 26 20:58:13 2023
92,stanley,54.868,-1.6985,3.76,96,75,2.06,GB,Sun Nov 26 20:58:13 2023
93,geraldton,-28.7667,114.6,26.23,53,75,5.66,AU,Sun Nov 26 20:58:13 2023
94,trairi,-3.2778,-39.2689,26.5,72,16,4.84,BR,Sun Nov 26 20:54:13 2023
95,el granada,37.5027,-122.4694,13.68,55,0,1.54,US,Sun Nov 26 20:58:14 2023
96,suva,-18.1416,178.4415,27.71,83,75,3.6,FJ,Sun Nov 26 20:58:14 2023
97,sao tome,0.3365,6.7273,26.24,81,100,2.67,ST,Sun Nov 26 20:58:14 2023
98,lompoc,34.6391,-120.4579,13.08,60,0,2.57,US,Sun Nov 26 20:58:15 2023
99,bontang,0.1333,117.5,28.21,78,98,1.44,ID,Sun Nov 26 20:58:15 2023
100,coyhaique,-45.5752,-72.0662,6.97,76,0,0.51,CL,Sun Nov 26 20:58:15 2023
101,breves,-1.6822,-50.4803,23.35,96,78,1.96,BR,Sun Nov 26 20:58:16 2023
102,howrah,22.5892,88.3103,24.0,73,40,0.0,IN,Sun Nov 26 20:57:47 2023
103,al burayqah,30.4062,19.5739,18.2,58,100,1.88,LY,Sun Nov 26 20:58:16 2023
104,montmagny,48.9734,2.3469,5.02,82,75,5.14,FR,Sun Nov 26 20:56:09 2023
105,vila franca do campo,37.7167,-25.4333,19.23,99,87,6.0,PT,Sun Nov 26 20:58:17 2023
106,tamanrasset,22.785,5.5228,11.95,22,0,4.63,DZ,Sun Nov 26 20:58:17 2023
107,saipan,15.1355,145.701,31.39,66,40,9.77,MP,Sun Nov 26 20:58:17 2023
108,konongo,6.6167,-1.2167,21.93,98,100,0.42,GH,Sun Nov 26 20:58:18 2023
109,papatowai,-46.5619,169.4708,13.47,76,100,4.3,NZ,Sun Nov 26 20:58:18 2023
110,tommot,58.9564,126.2925,-19.48,93,100,4.98,RU,Sun Nov 26 20:58:18 2023
111,wanning,18.8003,110.3967,24.99,63,8,6.17,CN,Sun Nov 26 20:58:19 2023
112,ushuaia,-54.8,-68.3,5.81,70,0,7.72,AR,Sun Nov 26 20:55:02 2023
113,haiku-pauwela,20.9219,-156.3051,25.01,71,20,7.72,US,Sun Nov 26 20:58:20 2023
114,nova vicosa,-17.8919,-39.3719,24.55,76,65,3.98,BR,Sun Nov 26 20:56:08 2023
115,sao luiz gonzaga,-28.4083,-54.9608,21.06,90,100,2.11,BR,Sun Nov 26 20:58:20 2023
116,iskateley,67.6803,53.1512,-22.32,100,50,2.81,RU,Sun Nov 26 20:58:20 2023
117,naze,28.3667,129.4833,20.51,73,74,4.22,JP,Sun Nov 26 20:58:21 2023
118,ola,59.5833,151.2833,-16.36,76,100,5.59,RU,Sun Nov 26 20:58:21 2023
119,ferkessedougou,9.6,-5.2,23.19,88,100,2.53,CI,Sun Nov 26 20:58:21 2023
120,hagere maryam,5.6333,38.2333,12.84,84,52,1.24,ET,Sun Nov 26 20:58:22 2023
121,laguna,38.421,-121.4238,8.99,62,0,0.0,US,Sun Nov 26 20:58:22 2023
122,avarua,-21.2078,-159.775,25.03,73,75,6.69,CK,Sun Nov 26 20:58:22 2023
123,wailua homesteads,22.0669,-159.378,25.24,89,75,6.17,US,Sun Nov 26 20:58:22 2023
124,whitehorse,60.7161,-135.0538,3.43,81,75,7.72,CA,Sun Nov 26 20:56:55 2023
125,glogowek,50.3536,17.8641,0.29,89,100,1.43,PL,Sun Nov 26 20:58:23 2023
126,rongelap,11.1635,166.8941,27.89,78,35,9.15,MH,Sun Nov 26 20:58:23 2023
127,alesund,62.4723,6.1549,1.53,80,0,6.17,NO,Sun Nov 26 20:58:23 2023
128,ciudad acuna,29.3232,-100.9522,14.16,48,100,3.09,MX,Sun Nov 26 20:58:24 2023
129,kapa'a,22.0752,-159.319,25.99,89,75,6.17,US,Sun Nov 26 20:58:24 2023
130,lijiang,26.8688,100.2207,14.66,29,11,0.87,CN,Sun Nov 26 20:58:25 2023
131,edinburgh of the seven seas,-37.0676,-12.3116,13.06,66,16,12.51,SH,Sun Nov 26 20:58:25 2023
132,christchurch,-43.5333,172.6333,20.3,62,100,7.2,NZ,Sun Nov 26 20:52:56 2023
133,zhangatas,43.5667,69.75,12.16,27,99,1.03,KZ,Sun Nov 26 20:58:25 2023
134,utrik,11.2278,169.8474,27.77,78,87,8.56,MH,Sun Nov 26 20:58:26 2023
135,al muwayh,22.4333,41.7583,20.95,56,54,3.24,SA,Sun Nov 26 20:58:26 2023
136,labrador city,52.9463,-66.9114,-10.05,62,75,2.57,CA,Sun Nov 26 20:58:26 2023
137,marka,1.7159,44.7717,26.33,82,100,3.99,SO,Sun Nov 26 20:58:27 2023
138,goure,13.9835,10.2704,23.81,24,59,4.15,NE,Sun Nov 26 20:58:27 2023
139,touros,-5.1989,-35.4608,24.72,83,3,4.4,BR,Sun Nov 26 20:58:27 2023
140,tenno,39.9,139.9667,5.5,78,99,2.76,JP,Sun Nov 26 20:58:28 2023
141,codrington,-38.2667,141.9667,14.59,63,98,6.2,AU,Sun Nov 26 20:58:28 2023
142,tiksi,71.6872,128.8694,-21.84,100,94,3.03,RU,Sun Nov 26 20:58:28 2023
143,talnakh,69.4865,88.3972,-23.81,98,46,3.0,RU,Sun Nov 26 20:58:29 2023
144,asau,46.4333,26.4,-2.49,70,99,6.36,RO,Sun Nov 26 20:58:29 2023
145,puerto ayora,-0.7393,-90.3518,24.75,93,45,2.24,EC,Sun Nov 26 20:58:29 2023
146,phan thiet,10.9333,108.1,31.39,54,65,6.86,VN,Sun Nov 26 20:58:30 2023
147,targuist,34.9377,-4.3186,7.63,61,44,2.51,MA,Sun Nov 26 20:58:30 2023
148,nouadhibou,20.931,-17.0347,18.68,68,0,6.97,MR,Sun Nov 26 20:58:30 2023
149,grand-bassam,5.2118,-3.7388,23.98,92,100,1.42,CI,Sun Nov 26 20:58:31 2023
150,cole harbour,44.6724,-63.4751,3.73,78,87,6.69,CA,Sun Nov 26 20:58:31 2023
151,hotan,37.0997,79.9269,6.76,24,100,1.73,CN,Sun Nov 26 20:58:31 2023
152,lagos,6.5833,3.75,25.18,92,100,1.5,NG,Sun Nov 26 20:57:53 2023
153,ilhabela,-23.7781,-45.3581,22.07,90,97,4.31,BR,Sun Nov 26 20:58:32 2023
154,bratsk,56.1325,101.6142,-19.73,80,80,1.04,RU,Sun Nov 26 20:53:42 2023
155,kluang,2.0251,103.3328,25.76,88,100,1.68,MY,Sun Nov 26 20:58:32 2023
156,sao gabriel da cachoeira,-0.1303,-67.0892,22.45,98,64,0.59,BR,Sun Nov 26 20:58:32 2023
157,sergeyevka,53.88,67.4158,0.84,82,100,5.37,KZ,Sun Nov 26 20:58:33 2023
158,tazacorte,28.629,-17.9293,19.54,78,100,3.58,ES,Sun Nov 26 20:58:33 2023
159,paris,48.8534,2.3488,5.1,82,100,4.12,FR,Sun Nov 26 20:58:12 2023
160,yerofey pavlovich,53.9667,121.9667,-14.97,44,22,1.4,RU,Sun Nov 26 20:58:33 2023
161,hadibu,12.65,54.0333,26.48,69,78,6.47,YE,Sun Nov 26 20:58:34 2023
162,antsiranana,-12.2787,49.2917,26.42,78,40,5.14,MG,Sun Nov 26 20:58:34 2023
163,ginir,7.1333,40.7,12.92,57,82,2.93,ET,Sun Nov 26 20:58:34 2023
164,tchintabaraden,15.8969,5.7985,24.45,25,100,3.08,NE,Sun Nov 26 20:58:35 2023
165,bryne,58.7354,5.6477,3.88,68,100,3.09,NO,Sun Nov 26 20:58:35 2023
166,qarauyl,48.9451,79.255,0.69,62,100,1.92,KZ,Sun Nov 26 20:58:35 2023
167,mana,5.6592,-53.7767,25.62,90,98,3.82,GF,Sun Nov 26 20:58:35 2023
168,cockburn town,21.4612,-71.1419,26.85,74,1,8.11,TC,Sun Nov 26 20:58:36 2023
169,saint-pierre,-21.3393,55.4781,26.82,57,0,2.06,RE,Sun Nov 26 20:58:36 2023
170,la passe,45.5549,-0.8967,4.13,69,100,2.97,FR,Sun Nov 26 20:58:36 2023
171,hinton,53.4001,-117.5857,-3.94,88,100,2.78,CA,Sun Nov 26 20:58:36 2023
172,sterling,39.0062,-77.4286,6.2,87,40,3.13,US,Sun Nov 26 20:58:37 2023
173,camana,-16.6228,-72.7111,19.5,83,76,2.41,PE,Sun Nov 26 20:58:37 2023
174,ixtapa,20.7,-105.2,25.68,66,100,1.07,MX,Sun Nov 26 20:58:38 2023
175,fortuna,40.5982,-124.1573,5.51,94,0,0.0,US,Sun Nov 26 20:58:38 2023
176,ha'il,27.5219,41.6907,14.01,58,0,2.06,SA,Sun Nov 26 20:58:38 2023
177,follonica,42.9263,10.7616,12.23,73,76,3.69,IT,Sun Nov 26 20:58:38 2023
178,flying fish cove,-10.4217,105.6791,28.82,65,40,5.14,CX,Sun Nov 26 20:58:39 2023
179,puerto aysen,-45.4,-72.7,7.84,82,87,0.52,CL,Sun Nov 26 20:58:39 2023
180,kingston,17.997,-76.7936,26.53,78,20,1.03,JM,Sun Nov 26 20:54:07 2023
181,berdyansk,46.7503,36.7944,1.64,76,90,15.33,UA,Sun Nov 26 20:58:39 2023
182,hamilton,39.1834,-84.5333,3.35,83,100,8.05,US,Sun Nov 26 20:49:44 2023
183,buka,40.8108,69.1986,13.33,30,100,1.31,UZ,Sun Nov 26 20:58:40 2023
184,candido mendes,-1.4467,-45.7167,24.3,90,90,1.59,BR,Sun Nov 26 20:58:40 2023
185,georgetown,5.4112,100.3354,30.96,74,20,2.57,MY,Sun Nov 26 20:53:49 2023
186,mocimboa,-11.3167,40.35,25.31,86,62,2.04,MZ,Sun Nov 26 20:58:40 2023
187,kone,-21.0595,164.8658,26.32,59,96,2.12,NC,Sun Nov 26 20:58:41 2023
188,frontera,26.9333,-101.45,11.05,83,100,1.34,MX,Sun Nov 26 20:58:41 2023
189,mount isa,-20.7333,139.5,33.87,38,75,2.57,AU,Sun Nov 26 20:58:41 2023
190,valle del guamuez,0.4525,-76.9192,21.0,98,84,0.91,CO,Sun Nov 26 20:58:41 2023
191,mirny,62.5353,113.9611,-18.38,94,98,3.93,RU,Sun Nov 26 20:58:42 2023
192,galliano,29.4422,-90.2992,14.44,82,0,2.06,US,Sun Nov 26 20:58:42 2023
193,golere,16.2557,-14.1017,23.13,16,0,3.63,SN,Sun Nov 26 20:58:42 2023
194,kattivakkam,13.2167,80.3167,28.37,86,66,4.62,IN,Sun Nov 26 20:58:42 2023
195,dibba al-hisn,25.6196,56.2729,18.1,64,52,0.93,AE,Sun Nov 26 20:58:43 2023
196,moundou,8.5667,16.0833,24.44,37,96,1.23,TD,Sun Nov 26 20:58:43 2023
197,huilong,31.8111,121.655,14.98,47,0,7.08,CN,Sun Nov 26 20:58:43 2023
198,saldanha,-33.0117,17.9442,16.03,87,3,5.08,ZA,Sun Nov 26 20:56:01 2023
199,suoyarvi,62.0833,32.35,-12.06,95,96,3.61,RU,Sun Nov 26 20:58:44 2023
200,chibougamau,49.9168,-74.3659,-3.21,93,100,5.14,CA,Sun Nov 26 20:58:44 2023
201,plettenberg bay,-34.0527,23.3716,18.34,64,1,2.01,ZA,Sun Nov 26 20:58:44 2023
202,tottori,35.5,134.2333,16.04,51,75,4.63,JP,Sun Nov 26 20:58:44 2023
203,al kharj,24.155,47.3346,22.32,40,36,3.18,SA,Sun Nov 26 20:58:45 2023
204,ashland,40.8167,-82.2665,3.98,95,100,5.76,US,Sun Nov 26 20:58:45 2023
205,belmonte,-15.8631,-38.8828,23.78,91,82,0.26,BR,Sun Nov 26 20:58:45 2023
206,carnarvon,-24.8667,113.6333,23.94,60,100,6.01,AU,Sun Nov 26 20:58:45 2023
207,moose jaw,50.4001,-105.5344,-5.86,86,97,3.6,CA,Sun Nov 26 20:58:46 2023
208,warmbad,-28.45,18.7333,22.21,28,9,0.94,NA,Sun Nov 26 20:58:46 2023
209,novodvinsk,64.4165,40.8122,-18.69,97,19,1.92,RU,Sun Nov 26 20:58:46 2023
210,mount pearl,47.5166,-52.7813,1.29,85,100,3.09,CA,Sun Nov 26 20:58:46 2023
211,arvayheer,46.2639,102.775,-8.33,49,26,2.77,MN,Sun Nov 26 20:58:47 2023
212,sinabang,2.4803,96.3801,28.11,71,77,2.49,ID,Sun Nov 26 20:58:47 2023
213,aasiaat,68.7098,-52.8699,-7.14,95,100,3.8,GL,Sun Nov 26 20:58:47 2023
214,los andes,-32.8337,-70.5983,17.78,65,6,0.22,CL,Sun Nov 26 20:58:47 2023
215,kourou,5.1552,-52.6478,26.03,90,99,3.14,GF,Sun Nov 26 20:58:47 2023
216,dakhla,23.6848,-15.958,17.96,70,9,6.77,EH,Sun Nov 26 20:58:48 2023
217,hithadhoo,-0.6,73.0833,27.98,74,17,2.69,MV,Sun Nov 26 20:58:48 2023
218,naracoorte,-36.9579,140.7383,21.93,44,17,3.45,AU,Sun Nov 26 20:58:48 2023
219,makinsk,52.6292,70.4169,-0.48,74,100,5.95,KZ,Sun Nov 26 20:58:48 2023
220,gurupa,-1.405,-51.64,22.87,99,85,1.12,BR,Sun Nov 26 20:58:49 2023
221,chinsali,-10.5414,32.0816,18.09,92,97,0.93,ZM,Sun Nov 26 20:58:49 2023
222,tileagd,47.0667,22.2,-4.14,82,18,5.53,RO,Sun Nov 26 20:58:49 2023
223,al jawf,29.5,38.75,13.61,41,0,3.6,SA,Sun Nov 26 20:58:49 2023
224,hancheng,32.5186,112.3522,16.12,37,0,2.16,CN,Sun Nov 26 20:58:49 2023
225,kuanda,56.3161,116.0806,-20.84,90,68,1.35,RU,Sun Nov 26 20:58:50 2023
226,zheleznogorsk-ilimskiy,56.5768,104.1217,-17.88,84,79,0.65,RU,Sun Nov 26 20:58:50 2023
227,lincoln city,44.9582,-124.0179,8.22,74,6,4.47,US,Sun Nov 26 20:58:50 2023
228,ingeniero guillermo n. juarez,-23.9,-61.85,24.34,82,100,1.69,AR,Sun Nov 26 20:58:50 2023
229,copala,16.65,-98.9833,25.66,79,88,1.49,MX,Sun Nov 26 20:58:51 2023
230,lichinga,-13.3128,35.2406,18.61,66,98,2.66,MZ,Sun Nov 26 20:58:51 2023
231,cabedelo,-6.9811,-34.8339,25.37,80,16,5.47,BR,Sun Nov 26 20:58:51 2023
232,tongliao,43.6125,122.2653,-6.56,80,100,5.23,CN,Sun Nov 26 20:58:51 2023
233,remire-montjoly,4.9167,-52.2667,26.02,94,40,1.03,GF,Sun Nov 26 20:58:52 2023
234,giyani,-23.3025,30.7187,22.72,69,0,2.55,ZA,Sun Nov 26 20:58:52 2023
235,nuuk,64.1835,-51.7216,-4.44,82,99,5.29,GL,Sun Nov 26 20:58:52 2023
236,kristiansund,63.1115,7.732,-1.64,64,2,3.6,NO,Sun Nov 26 20:58:52 2023
237,aguazul,5.1728,-72.5471,22.35,91,35,1.38,CO,Sun Nov 26 20:58:52 2023
238,punta arenas,-53.15,-70.9167,6.06,65,0,3.09,CL,Sun Nov 26 20:58:53 2023
239,maitum,6.0392,124.4986,29.47,70,74,1.7,PH,Sun Nov 26 20:58:53 2023
240,tongchuanshi,35.0806,109.0897,12.93,21,42,5.18,CN,Sun Nov 26 20:58:53 2023
241,taoudenni,22.6783,-3.9836,16.35,23,0,3.87,ML,Sun Nov 26 20:58:53 2023
242,guerrero negro,27.9769,-114.0611,18.81,61,44,1.72,MX,Sun Nov 26 20:58:53 2023
243,margate,51.3813,1.3862,9.94,95,100,2.68,GB,Sun Nov 26 20:58:54 2023
244,saint-philippe,-21.3585,55.7679,26.77,70,1,3.18,RE,Sun Nov 26 20:58:54 2023
245,enewetak,11.3474,162.3373,28.03,80,16,9.94,MH,Sun Nov 26 20:58:54 2023
246,mcminnville,45.2101,-123.1987,7.32,75,0,3.09,US,Sun Nov 26 20:58:54 2023
247,santa cruz,-17.8,-63.1667,23.7,94,75,4.63,BO,Sun Nov 26 20:58:55 2023
248,griffith,41.5284,-87.4237,-1.17,78,100,5.14,US,Sun Nov 26 20:50:59 2023
249,dryden,49.7833,-92.7503,-13.84,85,100,3.09,CA,Sun Nov 26 20:58:55 2023
250,waynesboro,38.0685,-78.8895,6.32,61,0,3.09,US,Sun Nov 26 20:57:58 2023
251,akureyri,65.6835,-18.0878,-6.04,93,0,0.0,IS,Sun Nov 26 20:56:33 2023
252,las navas del marques,40.6024,-4.3345,4.24,67,52,1.56,ES,Sun Nov 26 20:58:56 2023
253,lihue,21.9789,-159.3672,25.58,86,75,6.17,US,Sun Nov 26 20:58:56 2023
254,hermanus,-34.4187,19.2345,16.78,77,18,0.82,ZA,Sun Nov 26 20:58:56 2023
255,dourados,-22.2211,-54.8056,20.15,96,100,2.21,BR,Sun Nov 26 20:58:56 2023
256,okha,53.5739,142.9478,-12.18,87,74,12.01,RU,Sun Nov 26 20:56:54 2023
257,ghanzi,-21.5667,21.7833,25.11,33,30,4.11,BW,Sun Nov 26 20:58:57 2023
258,keflavik,64.0049,-22.5624,6.24,93,75,9.77,IS,Sun Nov 26 20:58:57 2023
259,talara,-4.5772,-81.2719,20.67,82,39,6.64,PE,Sun Nov 26 20:58:57 2023
260,motueka,-41.1333,173.0167,20.61,65,94,1.65,NZ,Sun Nov 26 20:58:57 2023
261,pechora,65.1472,57.2244,-19.55,97,47,1.3,RU,Sun Nov 26 20:58:57 2023
262,meadow lake,34.8014,-106.5436,0.63,68,29,0.86,US,Sun Nov 26 20:58:58 2023
263,ailuk,10.2197,169.9797,27.66,79,100,9.38,MH,Sun Nov 26 20:58:58 2023
264,bile,48.4952,39.0505,2.89,70,95,14.47,UA,Sun Nov 26 20:58:58 2023
265,ilulissat,69.2167,-51.1,-4.03,98,100,3.33,GL,Sun Nov 26 20:58:58 2023
266,fada,9.5667,8.3,19.23,92,73,1.95,NG,Sun Nov 26 20:58:58 2023
267,fort bragg,35.139,-79.006,8.91,92,100,2.57,US,Sun Nov 26 20:58:59 2023
268,itoman,26.1247,127.6694,26.21,66,75,6.17,JP,Sun Nov 26 20:58:59 2023
269,talwandi bhai,30.85,74.9333,20.96,28,100,1.39,IN,Sun Nov 26 20:58:59 2023
270,nola,40.922,14.5329,11.07,73,21,1.56,IT,Sun Nov 26 20:58:59 2023
271,klaksvik,62.2266,-6.589,4.51,64,25,8.49,FO,Sun Nov 26 20:59:00 2023
272,cabo san lucas,22.8909,-109.9124,24.86,70,100,2.06,MX,Sun Nov 26 20:47:20 2023
273,karaton,-6.3424,106.1045,30.21,64,99,0.87,ID,Sun Nov 26 20:59:00 2023
274,bardai,11.65,7.2333,21.06,81,100,2.29,NG,Sun Nov 26 20:59:00 2023
275,kosum phisai,16.2486,103.0674,30.47,44,91,6.23,TH,Sun Nov 26 20:59:01 2023
276,pimentel,-6.8367,-79.9342,20.16,83,0,8.75,PE,Sun Nov 26 20:59:01 2023
277,charata,-27.2144,-61.188,23.86,94,100,3.19,AR,Sun Nov 26 20:59:01 2023
278,opladen,51.0667,7.0167,5.39,81,100,3.09,DE,Sun Nov 26 20:59:01 2023
279,khandyga,62.6667,135.6,-30.87,95,100,0.61,RU,Sun Nov 26 20:59:01 2023
280,bikenibeu village,1.3673,173.1241,28.98,79,75,1.03,KI,Sun Nov 26 20:59:02 2023
281,fale old settlement,-9.3852,-171.2468,29.75,76,88,7.31,TK,Sun Nov 26 20:59:02 2023
282,dubbo,-32.25,148.6167,32.07,29,40,6.17,AU,Sun Nov 26 20:59:02 2023
283,murzuq,25.9155,13.9184,11.89,46,0,2.9,LY,Sun Nov 26 20:59:03 2023
284,luderitz,-26.6481,15.1594,20.51,51,0,7.31,NA,Sun Nov 26 20:59:03 2023
285,terbanggi besar,-4.8667,105.2333,28.89,66,93,0.21,ID,Sun Nov 26 20:59:03 2023
286,pauini,-7.7136,-66.9764,21.82,94,100,0.98,BR,Sun Nov 26 20:59:04 2023
287,mount gambier,-37.8333,140.7667,15.09,61,97,4.95,AU,Sun Nov 26 20:59:04 2023
288,emerald,-23.5333,148.1667,27.73,63,100,4.97,AU,Sun Nov 26 20:54:57 2023
289,muisne,0.6,-80.0333,24.92,87,86,2.43,EC,Sun Nov 26 20:59:05 2023
290,usinsk,65.9939,57.5281,-23.34,100,51,2.25,RU,Sun Nov 26 20:59:05 2023
291,plastun,44.7561,136.2939,-1.95,41,97,1.77,RU,Sun Nov 26 20:59:05 2023
292,tadine,-21.55,167.8833,24.87,60,34,4.11,NC,Sun Nov 26 20:59:06 2023
293,beau vallon,-20.4189,57.6953,27.34,94,75,1.54,MU,Sun Nov 26 20:59:06 2023
294,prineville,44.2999,-120.8345,0.2,59,5,2.38,US,Sun Nov 26 20:57:23 2023
295,parkway,38.496,-121.4588,10.75,62,0,0.0,US,Sun Nov 26 20:59:06 2023
296,lisala,2.15,21.5167,20.44,93,96,0.8,CD,Sun Nov 26 20:59:07 2023
297,batibo,5.8358,9.8553,17.92,91,98,0.79,CM,Sun Nov 26 20:59:07 2023
298,daru,-9.0763,143.2092,29.81,67,98,5.26,PG,Sun Nov 26 20:59:07 2023
299,alice springs,-23.7,133.8833,31.75,27,0,3.09,AU,Sun Nov 26 20:57:24 2023
300,san agustin de valle fertil,-30.6335,-67.4682,22.15,75,72,3.06,AR,Sun Nov 26 20:59:08 2023
301,ndioum,16.5129,-14.6471,20.94,17,0,4.17,SN,Sun Nov 26 20:59:08 2023
302,pershore,52.1116,-2.0759,10.26,96,100,1.79,GB,Sun Nov 26 20:59:09 2023
303,kushtagi,15.7667,76.2,23.92,72,15,6.49,IN,Sun Nov 26 20:59:09 2023
304,xilin hot,43.9667,116.0333,-11.51,77,89,5.96,CN,Sun Nov 26 20:59:09 2023
305,nueva esperanza,15.2667,-87.6,24.79,99,24,0.57,HN,Sun Nov 26 20:59:09 2023
306,san sebastian de la gomera,28.0916,-17.1133,21.2,68,100,3.09,ES,Sun Nov 26 20:59:10 2023
307,bamboo flat,11.7,92.7167,31.05,70,75,4.63,IN,Sun Nov 26 20:59:10 2023
308,saint-joseph,-21.3667,55.6167,26.21,68,0,2.3,RE,Sun Nov 26 20:59:10 2023
309,polyarnyy,69.1989,33.4478,-16.03,93,32,3.27,RU,Sun Nov 26 20:59:11 2023
310,tsiombe,-25.3,45.4833,25.69,71,2,2.38,MG,Sun Nov 26 20:59:11 2023
311,bahia blanca,-38.7196,-62.2724,16.01,74,83,4.92,AR,Sun Nov 26 20:55:27 2023
312,tobelo,1.7284,128.0095,28.69,75,79,1.89,ID,Sun Nov 26 20:59:11 2023
313,toamasina,-18.1667,49.3833,24.0,94,75,1.03,MG,Sun Nov 26 20:55:30 2023
314,vorkuta,67.5,64.0,-21.72,100,65,1.72,RU,Sun Nov 26 20:59:12 2023
315,ulsteinvik,62.3432,5.8487,1.53,80,1,3.58,NO,Sun Nov 26 20:59:12 2023
316,kolonia town,6.964,158.206,32.06,74,75,5.14,FM,Sun Nov 26 20:59:12 2023
317,kayangel,8.0823,134.7173,28.24,80,85,6.49,PW,Sun Nov 26 20:59:13 2023
318,bulgan,48.8125,103.5347,-11.84,84,34,1.31,MN,Sun Nov 26 20:59:13 2023
319,port douglas,-16.4833,145.4667,27.29,71,53,2.46,AU,Sun Nov 26 20:55:34 2023
320,arteche,12.2645,125.4048,28.65,76,77,2.83,PH,Sun Nov 26 20:59:13 2023
321,urbano santos,-3.2078,-43.4036,24.42,89,64,2.6,BR,Sun Nov 26 20:59:14 2023
322,mili,6.0815,171.735,28.48,79,89,7.83,MH,Sun Nov 26 20:59:14 2023
323,sao joao da barra,-21.6403,-41.0511,23.02,79,100,3.46,BR,Sun Nov 26 20:59:14 2023
324,constitucion,-35.3333,-72.4167,13.07,85,97,0.73,CL,Sun Nov 26 20:59:15 2023
325,zeya,53.75,127.2667,-16.4,48,13,2.14,RU,Sun Nov 26 20:59:15 2023
326,quellon,-43.1167,-73.6167,9.71,73,100,2.12,CL,Sun Nov 26 20:59:15 2023
327,hasaki,35.7333,140.8333,17.38,59,0,3.89,JP,Sun Nov 26 20:59:16 2023
328,khovd,48.0056,91.6419,-5.48,65,15,0.2,MN,Sun Nov 26 20:59:16 2023
329,atafu village,-8.5421,-172.5159,29.98,76,99,7.13,TK,Sun Nov 26 20:59:16 2023
330,luganville,-15.5333,167.1667,28.13,74,45,5.46,VU,Sun Nov 26 20:59:17 2023
331,olyokminsk,60.3736,120.4264,-16.64,87,100,4.99,RU,Sun Nov 26 20:58:04 2023
332,brookings,44.3114,-96.7984,-9.39,84,0,2.06,US,Sun Nov 26 20:57:43 2023
333,tazovsky,67.4667,78.7,-18.36,97,93,4.0,RU,Sun Nov 26 20:59:18 2023
334,austin,30.2672,-97.7431,8.8,63,0,2.06,US,Sun Nov 26 20:55:00 2023
335,midvagur,62.0511,-7.1939,4.46,70,40,2.57,FO,Sun Nov 26 20:59:18 2023
336,naryshkino,52.9678,35.7268,1.21,99,100,6.68,RU,Sun Nov 26 20:59:19 2023
337,katsuura,35.1333,140.3,15.69,67,3,3.48,JP,Sun Nov 26 20:59:19 2023
338,sarangani,5.4033,125.4636,28.53,75,37,5.79,PH,Sun Nov 26 20:59:19 2023
339,vysokiy,58.35,60.05,-4.89,96,86,1.9,RU,Sun Nov 26 20:59:19 2023
340,fort mcmurray,56.7268,-111.381,-6.23,86,100,0.51,CA,Sun Nov 26 20:59:20 2023
341,callao,-12.0667,-77.15,21.51,73,0,6.17,PE,Sun Nov 26 20:59:20 2023
342,labuan,5.2767,115.2417,30.2,70,20,2.06,MY,Sun Nov 26 20:59:20 2023
343,vylkove,45.4021,29.586,-1.17,81,99,6.28,UA,Sun Nov 26 20:59:21 2023
344,port lincoln,-34.7333,135.8667,17.59,68,97,8.29,AU,Sun Nov 26 20:59:21 2023
345,panacan,9.2463,118.4082,29.64,71,90,4.8,PH,Sun Nov 26 20:59:21 2023
346,sur,22.5667,59.5289,24.67,55,10,1.65,OM,Sun Nov 26 20:59:21 2023
347,northam,51.0333,-4.2167,10.7,96,100,7.49,GB,Sun Nov 26 20:59:22 2023
348,baranovichi,53.1327,26.0139,-7.34,92,99,6.73,BY,Sun Nov 26 20:59:22 2023
349,wynyard,-41.0,145.7167,12.48,76,100,2.31,AU,Sun Nov 26 20:59:22 2023
350,las khorey,11.1595,48.1967,25.74,63,26,1.55,SO,Sun Nov 26 20:59:22 2023
351,bereznehuvate,47.3078,32.8499,-2.56,80,100,11.33,UA,Sun Nov 26 20:59:23 2023
352,nadym,65.5333,72.5167,-22.12,100,16,3.16,RU,Sun Nov 26 20:59:23 2023
353,qaqortoq,60.7167,-46.0333,-8.16,87,74,3.89,GL,Sun Nov 26 20:59:23 2023
354,saint-denis,48.9167,2.3333,5.09,83,75,5.14,FR,Sun Nov 26 20:59:24 2023
355,andratx,39.5755,2.4202,13.31,89,100,4.74,ES,Sun Nov 26 20:59:24 2023
356,corinth,37.9407,22.9573,9.38,59,3,3.68,GR,Sun Nov 26 20:59:24 2023
357,robore,-18.3333,-59.75,22.72,92,93,1.04,BO,Sun Nov 26 20:59:25 2023
358,bull savanna,17.8868,-77.5902,24.76,85,76,2.94,JM,Sun Nov 26 20:59:25 2023
359,yulinshi,38.2906,109.7494,3.01,36,0,9.85,CN,Sun Nov 26 20:59:25 2023
360,kruisfontein,-34.0033,24.7314,17.65,70,0,2.93,ZA,Sun Nov 26 20:59:26 2023
361,dogondoutchi,13.6393,4.0287,24.86,69,96,3.02,NE,Sun Nov 26 20:59:26 2023
362,jeremie,18.65,-74.1167,25.91,83,71,1.19,HT,Sun Nov 26 20:57:47 2023
363,gizo,-8.103,156.8419,28.77,72,100,0.44,SB,Sun Nov 26 20:59:26 2023
364,pangody,65.85,74.4859,-19.09,100,82,3.28,RU,Sun Nov 26 20:59:27 2023
365,bodden town,19.2833,-81.25,28.0,90,20,3.09,KY,Sun Nov 26 20:59:27 2023
366,arraial do cabo,-22.9661,-42.0278,22.74,80,99,7.47,BR,Sun Nov 26 20:59:28 2023
367,patacamaya,-17.2333,-67.9167,8.56,80,66,3.99,BO,Sun Nov 26 20:59:28 2023
368,kudat,6.8837,116.8477,30.96,74,20,1.54,MY,Sun Nov 26 20:59:28 2023
369,derbent,42.0678,48.2899,12.02,81,9,8.06,RU,Sun Nov 26 20:59:28 2023
370,santana,-0.0583,-51.1817,23.1,88,100,12.86,BR,Sun Nov 26 20:59:29 2023
371,iguape,-24.7081,-47.5553,21.03,90,100,1.61,BR,Sun Nov 26 20:59:29 2023
372,la'ie,21.6477,-157.9253,26.98,79,100,3.13,US,Sun Nov 26 20:59:29 2023
373,bugiri,0.5714,33.7417,17.87,98,96,0.27,UG,Sun Nov 26 20:59:30 2023
374,yuzhno-kurilsk,44.0306,145.8556,2.99,51,98,0.88,RU,Sun Nov 26 20:59:30 2023
375,east london,-33.0153,27.9116,20.52,94,0,2.57,ZA,Sun Nov 26 20:59:30 2023
376,dankalwa,11.7443,12.1867,23.41,24,33,3.4,NG,Sun Nov 26 20:59:31 2023
377,itamaraca,-7.7478,-34.8256,26.03,79,20,4.34,BR,Sun Nov 26 20:59:31 2023
378,fomeque,4.488,-73.8975,18.42,96,65,0.69,CO,Sun Nov 26 20:59:31 2023
379,sinazongwe,-17.2614,27.4618,25.49,60,5,1.61,ZM,Sun Nov 26 20:59:32 2023
380,sisimiut,66.9395,-53.6735,-3.76,95,100,4.08,GL,Sun Nov 26 20:59:32 2023
381,sanghar,26.0466,68.9481,20.52,57,4,5.25,PK,Sun Nov 26 20:59:32 2023
382,maragogi,-9.0122,-35.2225,24.28,77,6,2.0,BR,Sun Nov 26 20:59:32 2023
383,nantucket,41.2835,-70.0995,10.08,93,100,8.75,US,Sun Nov 26 20:59:33 2023
384,yibin,28.7667,104.6238,18.24,73,52,2.17,CN,Sun Nov 26 20:58:27 2023
385,makurazaki,31.2667,130.3167,17.33,67,73,4.73,JP,Sun Nov 26 20:59:33 2023
386,st. john's,47.5649,-52.7093,1.75,85,100,3.09,CA,Sun Nov 26 20:59:34 2023
387,shimoda,34.6667,138.95,16.2,57,0,5.93,JP,Sun Nov 26 20:59:34 2023
388,kralendijk,12.15,-68.2667,27.99,78,75,7.72,BQ,Sun Nov 26 20:55:44 2023
389,revda,56.801,59.9303,-0.97,75,98,3.58,RU,Sun Nov 26 20:59:34 2023
390,wellington,-41.2866,174.7756,17.81,78,100,12.35,NZ,Sun Nov 26 20:52:33 2023
391,veraval,20.9,70.3667,23.82,72,2,2.52,IN,Sun Nov 26 20:59:35 2023
392,tafuna,-14.3358,-170.72,29.97,89,75,5.66,AS,Sun Nov 26 20:59:35 2023
393,beterou,9.1992,2.2586,24.09,76,100,1.3,BJ,Sun Nov 26 20:59:35 2023
394,lata,40.1629,-8.3327,9.49,96,58,1.02,PT,Sun Nov 26 20:59:36 2023
395,cidreira,-30.1811,-50.2056,20.63,88,22,8.03,BR,Sun Nov 26 20:59:36 2023
396,chincha alta,-13.4099,-76.1323,18.33,81,19,0.91,PE,Sun Nov 26 20:59:36 2023
397,ujae,8.9322,165.7642,27.91,81,68,9.67,MH,Sun Nov 26 20:59:36 2023
398,portland,45.5234,-122.6762,7.27,63,20,4.92,US,Sun Nov 26 20:49:09 2023
399,suntar,62.1444,117.6319,-16.05,92,100,3.82,RU,Sun Nov 26 20:58:18 2023
400,toro,4.6117,-76.0814,24.38,96,46,0.55,CO,Sun Nov 26 20:59:37 2023
401,pala,9.3642,14.9046,24.01,30,99,2.16,TD,Sun Nov 26 20:59:38 2023
402,north lakhimpur,27.2333,94.1167,23.05,64,20,1.03,IN,Sun Nov 26 20:59:38 2023
403,george town,5.4112,100.3354,30.96,74,20,2.57,MY,Sun Nov 26 20:59:38 2023
404,kabwe,-14.4469,28.4464,19.26,80,94,1.97,ZM,Sun Nov 26 20:59:39 2023
405,freetown,8.484,-13.2299,25.98,79,0,1.53,SL,Sun Nov 26 20:59:39 2023
406,rakops,-21.0167,24.3333,27.17,29,4,5.36,BW,Sun Nov 26 20:59:39 2023
407,kangaba,11.9333,-8.4167,22.88,63,36,1.39,ML,Sun Nov 26 20:59:40 2023
408,masina,-4.3836,15.3914,24.19,96,100,0.35,CD,Sun Nov 26 20:59:40 2023
409,seguin,29.5688,-97.9647,9.68,60,96,0.45,US,Sun Nov 26 20:59:40 2023
410,nemuro,43.3236,145.575,3.73,53,97,2.51,JP,Sun Nov 26 20:59:40 2023
411,kwang binh,17.4833,106.6,25.17,70,63,6.7,VN,Sun Nov 26 20:59:41 2023
412,knyaze-volkonskoye,48.4642,135.4567,-13.81,88,63,3.58,RU,Sun Nov 26 20:59:41 2023
413,peniche,39.3558,-9.3811,12.47,78,74,2.27,PT,Sun Nov 26 20:56:06 2023
414,tarawa,1.419,172.984,29.05,79,75,1.03,KI,Sun Nov 26 20:59:41 2023
415,khemisset,33.6667,-6.25,11.18,86,19,1.09,MA,Sun Nov 26 20:59:41 2023
416,darwin,-12.4611,130.8418,36.7,52,75,4.63,AU,Sun Nov 26 20:59:42 2023
417,south valley,35.0101,-106.6781,1.69,69,12,1.05,US,Sun Nov 26 20:59:42 2023
418,porto novo,6.4965,2.6036,23.9,91,95,0.16,BJ,Sun Nov 26 20:59:42 2023
419,vadso,70.0744,29.7487,-6.91,68,20,1.03,NO,Sun Nov 26 20:59:42 2023
420,sao jose da coroa grande,-8.8978,-35.1478,24.36,78,6,2.22,BR,Sun Nov 26 20:59:43 2023
421,sabang,5.8933,95.3214,26.12,80,100,1.93,ID,Sun Nov 26 20:59:43 2023
422,sodankyla,67.4167,26.6,-25.38,100,70,1.38,FI,Sun Nov 26 20:59:43 2023
423,beolgyo,34.8449,127.3429,13.83,70,80,4.28,KR,Sun Nov 26 20:59:43 2023
424,hafnarfjordur,64.0671,-21.9377,6.21,93,75,4.63,IS,Sun Nov 26 20:59:44 2023
425,vanimo,-2.6741,141.3028,28.79,77,98,1.5,PG,Sun Nov 26 20:59:44 2023
426,naqadeh,36.9553,45.388,7.38,83,55,3.24,IR,Sun Nov 26 20:59:44 2023
427,susuman,62.7833,148.1667,-20.78,99,100,2.08,RU,Sun Nov 26 20:59:44 2023
428,bazarak,35.3129,69.5152,9.05,28,42,1.15,AF,Sun Nov 26 20:59:44 2023
429,ayabaca,-4.6398,-79.7149,10.77,82,26,1.62,PE,Sun Nov 26 20:59:45 2023
430,zaragoza,41.6561,-0.8773,11.38,72,0,1.54,ES,Sun Nov 26 20:59:45 2023
431,el calafate,-50.3408,-72.2768,6.39,60,51,2.17,AR,Sun Nov 26 20:54:45 2023
432,yinzhu,35.8786,119.9753,11.3,44,0,4.31,CN,Sun Nov 26 20:59:45 2023
433,kaa-khem,51.6833,94.7333,-12.0,93,100,1.22,RU,Sun Nov 26 20:59:45 2023
434,furtwangen,48.05,8.2,-1.02,90,100,1.48,DE,Sun Nov 26 20:59:46 2023
435,punta de bombon,-17.1717,-71.7931,19.1,85,87,2.03,PE,Sun Nov 26 20:59:46 2023
436,reggane,26.7158,0.1714,15.32,28,0,3.72,DZ,Sun Nov 26 20:59:46 2023
437,aykhal,66.0,111.5,-20.98,99,97,4.23,RU,Sun Nov 26 20:59:46 2023
438,conde,-7.2597,-34.9075,24.7,88,40,2.06,BR,Sun Nov 26 20:59:47 2023
439,cohoes,42.7742,-73.7001,6.47,92,100,0.89,US,Sun Nov 26 20:59:47 2023
440,isangel,-19.55,169.2667,29.06,58,75,5.14,VU,Sun Nov 26 20:59:47 2023
441,micheweni,-4.9667,39.8333,26.03,85,99,3.1,TZ,Sun Nov 26 20:59:48 2023
442,hilo,19.7297,-155.09,24.04,88,72,0.45,US,Sun Nov 26 20:59:48 2023
443,gantang,26.92,119.6333,23.48,54,2,0.33,CN,Sun Nov 26 20:59:48 2023
444,faya-largeau,17.9257,19.1043,21.23,24,70,10.24,TD,Sun Nov 26 20:59:48 2023
445,santo antonio,-6.3106,-35.4789,23.05,76,0,3.14,BR,Sun Nov 26 20:59:48 2023
446,amos,48.5669,-78.1162,-1.77,96,100,4.03,CA,Sun Nov 26 20:59:49 2023
447,greater sudbury,46.49,-80.99,0.03,97,100,1.83,CA,Sun Nov 26 20:59:49 2023
448,gilgit,35.9221,74.3087,10.91,57,100,1.36,PK,Sun Nov 26 20:59:49 2023
449,neryungri,56.6709,124.6491,-20.29,88,100,6.15,RU,Sun Nov 26 20:59:49 2023
450,arroyo,41.6096,-4.7969,8.45,72,75,3.6,ES,Sun Nov 26 20:59:49 2023
451,tura,25.5198,90.2201,24.89,44,8,0.61,IN,Sun Nov 26 20:59:50 2023
452,magadan,59.5667,150.8,-16.83,76,100,4.49,RU,Sun Nov 26 20:59:50 2023
453,ebaye,8.7748,167.7392,28.01,83,100,11.83,MH,Sun Nov 26 20:59:50 2023
454,zardob,40.2183,47.7083,13.94,43,4,3.08,AZ,Sun Nov 26 20:55:33 2023
455,buala,-8.145,159.5921,28.37,80,99,2.62,SB,Sun Nov 26 20:59:51 2023
456,ratnagiri,16.9833,73.3,28.18,64,0,1.81,IN,Sun Nov 26 20:59:51 2023
457,kangding,30.0513,101.9603,13.51,17,0,1.41,CN,Sun Nov 26 20:59:51 2023
458,bereeda,11.8704,51.0579,26.66,69,84,4.65,SO,Sun Nov 26 20:59:52 2023
459,timimoun,29.2639,0.231,11.21,32,0,2.57,DZ,Sun Nov 26 20:56:20 2023
460,egilsstadir,65.2653,-14.3948,-0.05,93,0,5.14,IS,Sun Nov 26 20:59:52 2023
461,trinidad,-14.8333,-64.9,23.19,96,95,2.49,BO,Sun Nov 26 20:59:52 2023
462,kyaukse,21.6,96.1333,24.0,83,40,1.03,MM,Sun Nov 26 20:59:52 2023
463,horta,38.5333,-28.6333,17.79,95,100,4.47,PT,Sun Nov 26 20:59:53 2023
464,dzhalagash,45.0833,64.6667,10.93,40,100,5.57,KZ,Sun Nov 26 20:59:53 2023
465,juneau,58.3019,-134.4197,7.45,100,100,2.52,US,Sun Nov 26 20:59:53 2023
466,villa regina,-39.1,-67.0667,22.77,15,100,3.58,AR,Sun Nov 26 20:59:53 2023
467,khujner,23.7833,76.6,18.98,75,78,4.95,IN,Sun Nov 26 20:59:54 2023
468,dabeiba,7.0017,-76.2672,23.97,96,85,1.08,CO,Sun Nov 26 20:59:54 2023
469,emure-ekiti,7.4361,5.4593,21.72,97,100,1.07,NG,Sun Nov 26 20:59:54 2023
470,wad medani,14.4012,33.5199,26.56,28,69,3.45,SD,Sun Nov 26 20:59:54 2023
471,zouerate,22.7187,-12.4521,15.93,23,5,3.23,MR,Sun Nov 26 20:59:55 2023
472,bayanhongor,46.7167,100.1167,-14.19,69,2,0.43,MN,Sun Nov 26 20:59:55 2023
473,frutigen,46.5878,7.6475,1.76,77,100,1.58,CH,Sun Nov 26 20:59:55 2023
474,pariaman,-0.619,100.12,29.03,69,100,2.33,ID,Sun Nov 26 20:59:55 2023
475,undurkhaan,47.3194,110.6556,-17.11,80,1,3.22,MN,Sun Nov 26 20:59:55 2023
476,soio,-6.1349,12.3689,26.17,88,100,3.31,AO,Sun Nov 26 20:59:56 2023
477,hirara,24.8,125.2833,25.15,73,75,7.2,JP,Sun Nov 26 20:59:56 2023
478,lauro de freitas,-12.8944,-38.3272,26.01,65,40,4.63,BR,Sun Nov 26 20:59:56 2023
479,portage la prairie,49.9728,-98.2926,-11.61,58,79,6.52,CA,Sun Nov 26 20:59:56 2023
480,havre,49.5833,0.3333,7.87,93,100,7.2,FR,Sun Nov 26 20:59:57 2023
481,zavetnoye,47.1194,43.8903,5.59,78,100,7.79,RU,Sun Nov 26 20:59:57 2023
482,jinghong,21.991,100.7341,25.78,51,67,1.1,CN,Sun Nov 26 20:55:01 2023
483,as sulayyil,20.4607,45.5779,18.14,43,60,2.45,SA,Sun Nov 26 20:59:57 2023
484,huayucachi,-12.1333,-75.2333,12.44,80,99,1.38,PE,Sun Nov 26 20:59:58 2023
485,jayapura,-2.5333,140.7,25.66,67,92,2.17,ID,Sun Nov 26 20:55:51 2023
486,holualoa,19.6228,-155.9522,22.65,94,95,2.0,US,Sun Nov 26 20:59:58 2023
487,opuwo,-18.0607,13.84,24.18,63,100,1.21,NA,Sun Nov 26 20:59:58 2023
488,kidal,18.4411,1.4078,20.83,14,44,3.8,ML,Sun Nov 26 20:59:58 2023
489,khilok,51.3674,110.4676,-13.89,76,100,5.0,RU,Sun Nov 26 20:59:59 2023
490,mushie,-3.0167,16.9,22.06,97,100,0.15,CD,Sun Nov 26 20:59:59 2023
491,yatou,37.15,122.3833,9.79,57,20,6.32,CN,Sun Nov 26 20:59:59 2023
492,mejit,10.2753,170.8646,27.58,79,100,9.79,MH,Sun Nov 26 20:59:59 2023
493,nyala,12.05,24.8833,23.88,24,26,5.36,SD,Sun Nov 26 20:59:59 2023
494,oneonta,42.4529,-75.0638,6.17,99,100,3.21,US,Sun Nov 26 21:00:00 2023
495,page,36.9147,-111.4558,2.6,52,0,3.13,US,Sun Nov 26 21:00:00 2023
496,annaba,36.9,7.7667,7.98,93,0,2.57,DZ,Sun Nov 26 21:00:01 2023
497,hami,42.8,93.45,7.1,31,71,3.29,CN,Sun Nov 26 21:00:04 2023
498,prince george,53.9166,-122.753,0.69,100,100,0.0,CA,Sun Nov 26 21:00:07 2023
499,severnoye,56.3491,78.3619,-0.57,97,100,3.58,RU,Sun Nov 26 21:00:08 2023
500,nar'yan-mar,67.6713,53.087,-22.2,100,68,2.91,RU,Sun Nov 26 21:00:10 2023
501,fort st. john,56.2499,-120.8529,-0.06,74,75,1.54,CA,Sun Nov 26 21:00:11 2023
502,mwene-ditu,-7.0,23.45,18.32,98,100,1.67,CD,Sun Nov 26 21:00:12 2023
503,myitkyina,25.3833,97.4,24.52,43,4,0.84,MM,Sun Nov 26 21:00:12 2023
504,mumford,5.2618,-0.759,24.59,87,100,1.94,GH,Sun Nov 26 21:00:13 2023
505,usogorsk,63.4106,48.6872,-15.74,97,100,2.66,RU,Sun Nov 26 21:00:13 2023
506,newman,37.3138,-121.0208,7.94,52,97,1.14,US,Sun Nov 26 21:00:14 2023
507,boundiali,9.5217,-6.4869,22.68,78,66,1.45,CI,Sun Nov 26 21:00:14 2023
508,abadan,30.3392,48.3043,18.97,88,75,3.09,IR,Sun Nov 26 21:00:15 2023
509,dunedin,-45.8742,170.5036,12.67,75,100,1.79,NZ,Sun Nov 26 21:00:15 2023
510,vilyuchinsk,52.9306,158.4028,-3.85,69,73,6.2,RU,Sun Nov 26 21:00:16 2023
511,dobrich,43.5667,27.8333,-1.43,87,56,6.78,BG,Sun Nov 26 20:59:37 2023
512,sao miguel do araguaia,-13.275,-50.1628,21.48,89,86,1.14,BR,Sun Nov 26 21:00:17 2023
513,pisco,-13.7,-76.2167,19.45,82,0,5.14,PE,Sun Nov 26 20:57:11 2023
514,puerto madero,14.7208,-92.4215,26.58,79,4,3.77,MX,Sun Nov 26 21:00:17 2023
515,ta`u,-14.2336,-169.5144,27.84,85,100,8.34,AS,Sun Nov 26 21:00:18 2023
516,al kharijah,25.4514,30.5464,14.48,43,1,3.18,EG,Sun Nov 26 21:00:18 2023
517,karkira,36.9292,6.5856,12.42,70,53,2.7,DZ,Sun Nov 26 21:00:20 2023
518,acapulco de juarez,16.8634,-99.8901,27.9,83,40,2.06,MX,Sun Nov 26 20:55:44 2023
519,macia,-25.0269,33.0989,23.32,89,28,0.15,MZ,Sun Nov 26 21:00:21 2023
520,kununurra,-15.7667,128.7333,35.99,41,60,3.6,AU,Sun Nov 26 20:56:17 2023
521,woolgoolga,-30.1106,153.2007,25.93,57,59,2.36,AU,Sun Nov 26 21:00:22 2023
522,creil,49.2567,2.4848,4.67,77,100,6.23,FR,Sun Nov 26 21:00:23 2023
523,ruteng,-8.6136,120.4721,22.62,75,100,0.49,ID,Sun Nov 26 21:00:23 2023
524,eyl,7.9803,49.8164,26.23,67,100,6.8,SO,Sun Nov 26 21:00:24 2023
525,catumbela,-12.4314,13.5472,26.13,84,100,3.29,AO,Sun Nov 26 21:00:24 2023
526,ghadamis,30.1337,9.5007,12.66,40,85,3.37,LY,Sun Nov 26 21:00:25 2023
527,enriquillo,17.9,-71.2333,25.5,87,34,4.13,DO,Sun Nov 26 21:00:25 2023
528,brisas de zicatela,15.8369,-97.0419,27.29,61,40,1.54,MX,Sun Nov 26 21:00:26 2023
529,new norfolk,-42.7826,147.0587,15.51,35,19,2.85,AU,Sun Nov 26 21:00:26 2023
530,laborde,-33.1532,-62.8566,21.01,54,13,3.59,AR,Sun Nov 26 21:00:27 2023
531,chhatak,25.0333,91.6667,29.55,29,7,1.64,BD,Sun Nov 26 21:00:27 2023
532,laela,-8.5667,32.05,17.24,90,99,0.5,TZ,Sun Nov 26 21:00:28 2023
533,waddan,29.1614,16.139,11.72,56,14,2.12,LY,Sun Nov 26 21:00:30 2023
534,korkuteli,37.065,30.1957,4.67,69,4,3.27,TR,Sun Nov 26 21:00:32 2023
535,morehead city,34.7229,-76.726,10.57,90,100,0.89,US,Sun Nov 26 21:00:35 2023
536,sidi khaled,34.387,4.9879,9.14,67,8,0.52,DZ,Sun Nov 26 21:00:37 2023
537,floro,61.5996,5.0328,5.54,75,5,4.12,NO,Sun Nov 26 21:00:38 2023
538,samarinda,-0.5,117.15,28.22,84,90,1.19,ID,Sun Nov 26 21:00:39 2023
539,dhari,21.3333,71.0167,22.62,80,41,1.88,IN,Sun Nov 26 21:00:39 2023
540,novyy urengoy,66.0833,76.6333,-14.54,97,90,3.47,RU,Sun Nov 26 20:59:03 2023
541,koundara,12.4833,-13.3,20.73,78,0,2.02,GN,Sun Nov 26 21:00:40 2023
542,labytnangi,66.6572,66.4183,-24.6,100,82,0.64,RU,Sun Nov 26 21:00:40 2023
543,kushikino,31.7167,130.2667,19.7,66,69,2.47,JP,Sun Nov 26 21:00:42 2023
544,zhangjiajie,29.1294,110.4783,20.14,61,0,0.45,CN,Sun Nov 26 21:00:42 2023
545,senanga,-16.1167,23.2667,20.33,82,20,1.88,ZM,Sun Nov 26 21:00:43 2023
546,netley,50.8763,-1.354,10.51,94,100,1.79,GB,Sun Nov 26 21:00:43 2023
547,altamont,42.2068,-121.7372,1.55,66,0,1.03,US,Sun Nov 26 21:00:43 2023
548,imbituba,-28.24,-48.6703,19.9,93,100,4.63,BR,Sun Nov 26 21:00:43 2023
549,russkaya polyana,49.417,31.9201,-3.46,91,100,13.31,UA,Sun Nov 26 21:00:44 2023
550,sola,-13.8833,167.55,30.37,74,100,2.06,VU,Sun Nov 26 21:00:44 2023
551,dhidhdhoo,6.8833,73.1,29.01,73,36,7.24,MV,Sun Nov 26 20:57:01 2023
552,vredendal,-31.6683,18.5012,15.76,76,0,0.53,ZA,Sun Nov 26 21:00:44 2023
553,mont-dore,-22.2833,166.5833,28.99,62,72,3.83,NC,Sun Nov 26 21:00:05 2023
554,sougueur,35.1857,1.4961,2.07,70,0,1.54,DZ,Sun Nov 26 21:00:45 2023
555,nishinoomote,30.7333,131.0,20.31,72,20,7.2,JP,Sun Nov 26 21:00:45 2023
556,eirunepe,-6.6603,-69.8736,20.77,97,70,0.51,BR,Sun Nov 26 21:00:46 2023
557,tocopilla,-22.092,-70.1979,18.47,71,13,1.03,CL,Sun Nov 26 21:00:47 2023
